[{"lat": "9.145", "lng": "40.489673", "name": "Ethiopia", "all": {"c": 3077455.0, "b": 0, "e": 0, "as_of": "08-31-17", "otc_n": 0}, "dnr": {"626": {"c": 12435.0, "as_of": "08-31-17", "otc_n": 1}, "157": {"c": 3065020.0, "as_of": "08-31-17", "otc_n": 10}}}, {"lat": "-34.932126", "lng": "-65.217422", "name": "Argentina", "all": {"c": 0, "b": 17737594.0, "e": 0, "as_of": "08-31-17", "otc_n": 0}, "dnr": {}}, {"lat": "-19.015438", "lng": "29.154857", "name": "Zimbabwe", "all": {"c": 0, "b": 79319016.0, "e": 0, "as_of": "08-31-17", "otc_n": 0}, "dnr": {}}, {"lat": "-18.665695", "lng": "35.529562", "name": "Republic of Mozambique", "all": {"c": 0, "b": 47829500.0, "e": 0, "as_of": "08-31-17", "otc_n": 0}, "dnr": {}}, {"lat": "-6.369028", "lng": "34.888822", "name": "United Rep. of Tanzania", "all": {"c": 0, "b": 43730440.0, "e": 0, "as_of": "08-31-17", "otc_n": 0}, "dnr": {}}, {"lat": "18.109581", "lng": "-77.297508", "name": "Jamaica", "all": {"c": 0, "b": 1944000.0, "e": 0, "as_of": "08-31-17", "otc_n": 0}, "dnr": {}}, {"lat": "41.153332", "lng": "20.168331", "name": "Albania", "all": {"c": 0, "b": 3429000.0, "e": 0, "as_of": "08-31-17", "otc_n": 0}, "dnr": {}}, {"lat": "-32.522779", "lng": "-55.765835", "name": "Uruguay", "all": {"c": 0, "b": 1136692.0, "e": 0, "as_of": "08-31-17", "otc_n": 0}, "dnr": {}}, {"lat": "19.85627", "lng": "102.495496", "name": "Lao People's Dem Rep.", "all": {"c": 0, "b": 11777316.0, "e": 0, "as_of": "08-31-17", "otc_n": 0}, "dnr": {}}, {"lat": "38.861034", "lng": "71.276093", "name": "Tajikistan", "all": {"c": 0, "b": 6829340.0, "e": 0, "as_of": "08-31-17", "otc_n": 0}, "dnr": {}}, {"lat": "38.963745", "lng": "35.243322", "name": "Turkey", "all": {"c": 0, "b": 6045000.0, "e": 0, "as_of": "08-31-17", "otc_n": 0}, "dnr": {}}, {"lat": "23.684994", "lng": "90.356331", "name": "Bangladesh", "all": {"c": 0, "b": 80025150.0, "e": 0, "as_of": "08-31-17", "otc_n": 0}, "dnr": {}}, {"lat": "46.862496", "lng": "103.846656", "name": "Mongolia", "all": {"c": 0, "b": 5999892.0, "e": 0, "as_of": "08-31-17", "otc_n": 0}, "dnr": {}}, {"lat": "-26.522503", "lng": "31.465866", "name": "Swaziland", "all": {"c": 0, "b": 3859000.0, "e": 0, "as_of": "08-31-17", "otc_n": 0}, "dnr": {}}, {"lat": "40.339852", "lng": "127.510093", "name": "DP Republic of Korea", "all": {"c": 0, "b": 11077755.0, "e": 0, "as_of": "08-31-17", "otc_n": 0}, "dnr": {}}, {"lat": "35.86166", "lng": "104.195397", "name": "China", "all": {"c": 0, "b": 24707362.0, "e": 0, "as_of": "08-31-17", "otc_n": 0}, "dnr": {}}, {"lat": "40.069099", "lng": "45.038189", "name": "Armenia", "all": {"c": 0, "b": 3335990.0, "e": 0, "as_of": "08-31-17", "otc_n": 0}, "dnr": {}}, {"lat": "-.789275", "lng": "113.921327", "name": "Indonesia", "all": {"c": 0, "b": 25843905.0, "e": 0, "as_of": "08-31-17", "otc_n": 0}, "dnr": {}}, {"lat": "15.454166", "lng": "18.732207", "name": "Chad", "all": {"c": 0, "b": 52543549.0, "e": 0, "as_of": "08-31-17", "otc_n": 0}, "dnr": {}}, {"lat": "4.210484", "lng": "101.975766", "name": "Malaysia", "all": {"c": 0, "b": 3911994.0, "e": 0, "as_of": "08-31-17", "otc_n": 0}, "dnr": {}}, {"lat": "1.373333", "lng": "32.290275", "name": "Uganda", "all": {"c": 1613704.0, "b": 60375687.0, "e": 0, "as_of": "08-31-17", "otc_n": 0}, "dnr": {"45": {"c": 1613704.0, "as_of": "08-31-17", "otc_n": 4}}}, {"lat": "8.537981", "lng": "-80.782127", "name": "Panama", "all": {"c": 0, "b": 1597997.0, "e": 0, "as_of": "08-31-17", "otc_n": 0}, "dnr": {}}, {"lat": "32.427908", "lng": "53.688046", "name": "Iran", "all": {"c": 0, "b": 2594415.0, "e": 0, "as_of": "08-31-17", "otc_n": 0}, "dnr": {}}, {"lat": "13.794185", "lng": "-88.89653", "name": "El Salvador", "all": {"c": 0, "b": 2451000.0, "e": 0, "as_of": "08-31-17", "otc_n": 0}, "dnr": {}}, {"lat": "15.870032", "lng": "100.992541", "name": "Thailand", "all": {"c": 0, "b": 10995000.0, "e": 0, "as_of": "08-31-17", "otc_n": 0}, "dnr": {}}, {"lat": "13.443182", "lng": "-15.310139", "name": "Gambia", "all": {"c": 0, "b": 4083466.0, "e": 0, "as_of": "08-31-17", "otc_n": 0}, "dnr": {}}, {"lat": "11.803749", "lng": "-15.180413", "name": "Guinea Bissau", "all": {"c": 0, "b": 8189740.0, "e": 0, "as_of": "08-31-17", "otc_n": 0}, "dnr": {}}, {"lat": "31.791702", "lng": "-7.09262", "name": "Morocco", "all": {"c": 0, "b": 6198000.0, "e": 0, "as_of": "08-31-17", "otc_n": 0}, "dnr": {}}, {"lat": "45.1", "lng": "15.2", "name": "Croatia", "all": {"c": 0, "b": 2590000.0, "e": 0, "as_of": "08-31-17", "otc_n": 0}, "dnr": {}}, {"lat": "42.708678", "lng": "19.37439", "name": "Republic of Montenegro", "all": {"c": 0, "b": 1907346.0, "e": 0, "as_of": "08-31-17", "otc_n": 0}, "dnr": {}}, {"lat": "42.6026359", "lng": "20.902977", "name": "Kosovo", "all": {"c": 0, "b": 3255456.0, "e": 0, "as_of": "08-31-17", "otc_n": 0}, "dnr": {}}, {"lat": "13.193887", "lng": "-59.543198", "name": "Barbados", "all": {"c": 0, "b": 396000.0, "e": 0, "as_of": "08-31-17", "otc_n": 0}, "dnr": {}}, {"lat": "-13.133897", "lng": "27.849332", "name": "Zambia", "all": {"c": 0, "b": 41876976.0, "e": 0, "as_of": "08-31-17", "otc_n": 0}, "dnr": {}}, {"lat": ".18636", "lng": "6.613081", "name": "Sao Tome & Principe", "all": {"c": 0, "b": 1300605.0, "e": 0, "as_of": "08-31-17", "otc_n": 0}, "dnr": {}}, {"lat": "41.377491", "lng": "64.585262", "name": "Rep of Uzbekistan", "all": {"c": 0, "b": 5169000.0, "e": 0, "as_of": "08-31-17", "otc_n": 0}, "dnr": {}}, {"lat": "7.539989", "lng": "-5.54708", "name": "Cote D'Ivoire", "all": {"c": 0, "b": 33053276.0, "e": 0, "as_of": "08-31-17", "otc_n": 0}, "dnr": {}}, {"lat": "15.179384", "lng": "39.782334", "name": "Eritrea", "all": {"c": 0, "b": 16092850.0, "e": 0, "as_of": "08-31-17", "otc_n": 0}, "dnr": {}}, {"lat": "4.860416", "lng": "-58.93018", "name": "Guyana", "all": {"c": 0, "b": 682497.0, "e": 0, "as_of": "08-31-17", "otc_n": 0}, "dnr": {}}, {"lat": "44.016521", "lng": "21.005859", "name": "Serbia", "all": {"c": 0, "b": 3298053.0, "e": 0, "as_of": "08-31-17", "otc_n": 0}, "dnr": {}}]